{
  "points": [
    {
      "name": "Gare de Charleville",
      "lat": 49.767996,
      "long": 4.725016,
      "city": "CHARLEVILLE-MEZIERES",
      "address": "Gare de Charleville-Mézières, Place de la Gare, 08000 Charleville-Mézières, France"
    },
    {
      "name": "Gonzague",
      "lat": 49.770667,
      "long": 4.71942,
      "city": "CHARLEVILLE-MEZIERES",
      "address": "Boulevard Gambetta, 08000 Charleville-Mézières, France"
    },
    {
      "name": "Place Ducale",
      "lat": 49.773546,
      "long": 4.720893,
      "city": "CHARLEVILLE-MEZIERES",
      "address": "Place Ducale, 08000 Charleville-Mézières, France"
    },
    {
      "name": "Pont de Montcy",
      "lat": 49.775854,
      "long": 4.728013,
      "city": "CHARLEVILLE-MEZIERES",
      "address": "79 Rue Forest, 08000 Charleville-Mézières, France"
    },
    {
      "name": "Parc du Mont Olympe",
      "lat": 49.780442,
      "long": 4.720269,
      "city": "CHARLEVILLE-MEZIERES",
      "address": "Rue des Pâquis, Charleville-Mézières, France"
    },
    {
      "name": "Montcy-Saint-Pierre",
      "lat": 49.78104,
      "long": 4.728931,
      "city": "CHARLEVILLE-MEZIERES",
      "address": "2 Rue des Chalets, 08000 Charleville-Mézières, France"
    },
    {
      "name": "Pont D58",
      "lat": 49.7747,
      "long": 4.735955,
      "city": "CHARLEVILLE-MEZIERES",
      "address": "39 Rue de Castrice, 08000 Charleville-Mézières, France"
    },
    {
      "name": "Place des Droits de l’Homme",
      "lat": 49.778768,
      "long": 4.716808,
      "city": "CHARLEVILLE-MEZIERES",
      "address": "13 Place des Droits de l'Homme, 08000 Charleville-Mézières, France"
    },
    {
      "name": "Bel-Air",
      "lat": 49.786522,
      "long": 4.721889,
      "city": "CHARLEVILLE-MEZIERES",
      "address": "2 Rue Pierre Hallali, 08000 Charleville-Mézières, France"
    },
    {
      "name": "La Culbute",
      "lat": 49.792613,
      "long": 4.726385,
      "city": "CHARLEVILLE-MEZIERES",
      "address": "Clouet, 08000 Charleville-Mézières, France"
    },
    {
      "name": "La Havetière",
      "lat": 49.797853,
      "long": 4.712416,
      "city": "CHARLEVILLE-MEZIERES",
      "address": "Horizon, 08000 Charleville-Mézières, France"
    },
    {
      "name": "Parc Collignon",
      "lat": 49.783363,
      "long": 4.710687,
      "city": "CHARLEVILLE-MEZIERES",
      "address": "Parc Collignon, Charleville-Mézières, France"
    },
    {
      "name": "Cimetière Boutet",
      "lat": 49.775873,
      "long": 4.710554,
      "city": "CHARLEVILLE-MEZIERES",
      "address": "82 Avenue Charles Boutet, 08000 Charleville-Mézières, France"
    },
    {
      "name": "Etion",
      "lat": 49.785662,
      "long": 4.695429,
      "city": "CHARLEVILLE-MEZIERES",
      "address": "207 Rue d'Etion, 08000 Charleville-Mézières, France"
    },
    {
      "name": "Bd Gambetta",
      "lat": 49.773683,
      "long": 4.705108,
      "city": "CHARLEVILLE-MEZIERES",
      "address": "167 Avenue Charles de Gaulle, 08000 Charleville-Mézières, France"
    },
    {
      "name": "La Warenne",
      "lat": 49.760378,
      "long": 4.685678,
      "city": "CHARLEVILLE-MEZIERES",
      "address": "Prom. de la Warenne, 08000 Charleville-Mézières, France"
    },
    {
      "name": "CHU Manchester",
      "lat": 49.762408,
      "long": 4.69805,
      "city": "CHARLEVILLE-MEZIERES",
      "address": "45 Avenue de Manchester, 08000 Charleville-Mézières, France"
    },
    {
      "name": "Hôtel de Ville",
      "lat": 49.760233,
      "long": 4.718773,
      "city": "CHARLEVILLE-MEZIERES",
      "address": "73 Place de l'Hôtel de ville, 08000 Charleville-Mézières, France"
    },
    {
      "name": "Parc des expos",
      "lat": 49.75669,
      "long": 4.708418,
      "city": "CHARLEVILLE-MEZIERES",
      "address": "61 Boulevard de la Couronne Champagne, 08000 Charleville-Mézières, France"
    },
    {
      "name": "Gare de Mohon",
      "lat": 49.752726,
      "long": 4.733241,
      "city": "CHARLEVILLE-MEZIERES",
      "address": "Gare de Mohon, 08000 Charleville-Mézières, France"
    },
    {
      "name": "Ronde Couture",
      "lat": 49.748122,
      "long": 4.720491,
      "city": "CHARLEVILLE-MEZIERES",
      "address": "8 Rue des Mésanges, 08000 Charleville-Mézières, France"
    },
    {
      "name": "Campus Sup Ardennes",
      "lat": 49.739113,
      "long": 4.721216,
      "city": "CHARLEVILLE-MEZIERES",
      "address": "3 Boulevard Jean Delautre, 08000 Charleville-Mézières, France"
    },
    {
      "name": "Centre Commercial",
      "lat": 49.739021,
      "long": 4.707187,
      "city": "CHARLEVILLE-MEZIERES",
      "address": "2 Rue Paulin Richier, 08000 Charleville-Mézières, France"
    },
    {
      "name": "[Lotissement random point externe]",
      "lat": 49.751053,
      "long": 4.705009,
      "city": "CHARLEVILLE-MEZIERES",
      "address": "30 Rue le Pré au Chêne, 08000 Charleville-Mézières, France"
    },
    {
      "name": "ZI de Charleville-Mézières",
      "lat": 49.737554,
      "long": 4.733999,
      "city": "CHARLEVILLE-MEZIERES",
      "address": "12 Rue Camille Didier, 08000 Charleville-Mézières, France"
    },
    {
      "name": "Pont Voie Ferrée",
      "lat": 49.744112,
      "long": 4.735081,
      "city": "CHARLEVILLE-MEZIERES",
      "address": "10 Rue Paul Bert, 08000 Charleville-Mézières, France"
    },
    {
      "name": "Le Theux",
      "lat": 49.760252,
      "long": 4.739774,
      "city": "CHARLEVILLE-MEZIERES",
      "address": "86 Rue de Berthaucourt, 08000 Charleville-Mézières, France"
    },
    {
      "name": "Romery",
      "lat": 49.751174,
      "long": 4.768733,
      "city": "SAINT-LAURENT",
      "address": "Romery, 08090 Saint-Laurent, France"
    },
    {
      "name": "Saint Laurent",
      "lat": 49.764183,
      "long": 4.771755,
      "city": "SAINT-LAURENT",
      "address": "22 Rue des Genêts, 08090 Saint-Laurent, France"
    },
    {
      "name": "Aiglemont",
      "lat": 49.781557,
      "long": 4.765989,
      "city": "AIGLEMONT",
      "address": "1 Rue Charles de Gaulle, 08090 Aiglemont, France"
    },
    {
      "name": "Pont de Nouzonville",
      "lat": 49.816503,
      "long": 4.740041,
      "city": "NOUZONVILLE",
      "address": "1 Rue du Pont, 08700 Nouzonville, France"
    },
    {
      "name": "Gare de Nouzonville",
      "lat": 49.812281,
      "long": 4.743186,
      "city": "NOUZONVILLE",
      "address": "Gare de Nouzonville, 08700 Nouzonville, France"
    },
    {
      "name": "Mairie de Montcy-Notre-Dame",
      "lat": 49.773881,
      "long": 4.742638,
      "city": "MONTCY-NOTRE-DAME",
      "address": "11 Place J B Clément, 08090 Montcy-Notre-Dame, France"
    },
    {
      "name": "Montcy-Notre-Dame",
      "lat": 49.780363,
      "long": 4.739621,
      "city": "MONTCY-NOTRE-DAME",
      "address": "21 Rue de Bois Joli, 08090 Montcy-Notre-Dame, France"
    },
    {
      "name": "N43",
      "lat": 49.778295,
      "long": 4.695448,
      "city": "WARCQ",
      "address": "34 Boulevard Lucien Pierquin, 08000 Warcq, France"
    },
    {
      "name": "Mairie de Warcq",
      "lat": 49.769007,
      "long": 4.680596,
      "city": "WARCQ",
      "address": "20 Rue de la République, 08000 Warcq, France"
    },
    {
      "name": "Damouzy",
      "lat": 49.797616,
      "long": 4.675881,
      "city": "DAMOUZY",
      "address": "2 Rue du Pâquis, 08090 Damouzy, France"
    },
    {
      "name": "Mairie de Prix-lès-Mézières",
      "lat": 49.754407,
      "long": 4.687684,
      "city": "PRIX-LES-MEZIERES",
      "address": "1 Rue d'Evigny, 08000 Prix-lès-Mézières, France"
    },
    {
      "name": "Mairie de La Francheville",
      "lat": 49.728649,
      "long": 4.712253,
      "city": "LA-FRANCHEVILLE",
      "address": "2bis Rue d'Evigny, 08000 La Francheville, France"
    },
    {
      "name": "Les Ayvelles",
      "lat": 49.722339,
      "long": 4.756394,
      "city": "LES AYVELLES",
      "address": "Ballastières, 08000 Les Ayvelles, France"
    },
    {
      "name": "Centre Commercial",
      "lat": 49.732376,
      "long": 4.752932,
      "city": "VILLERS-SEMEUSE",
      "address": "D764, 08000 Les Ayvelles, France"
    },
    {
      "name": "Mairie de Villers-Semeuse",
      "lat": 49.742563,
      "long": 4.7468,
      "city": "VILLERS-SEMEUSE",
      "address": "11 Rue Ferdinand Buisson, 08000 Villers-Semeuse, France"
    },
    {
      "name": "Semeuse",
      "lat": 49.748633,
      "long": 4.752874,
      "city": "VILLERS-SEMEUSE",
      "address": "42 Rue Pierre Curie, 08000 Villers-Semeuse, France"
    },
    {
      "name": "Fort des Ayvelles",
      "lat": 49.725566,
      "long": 4.732754,
      "city": "VILLERS-SEMEUSE",
      "address": "46 Rue Louise Michel, 08000 Villers-Semeuse, France"
    }
  ],
  "lines": [
    {
      "nameA": "Place Ducale",
      "latA": 49.773546,
      "longA": 4.720893,
      "cityA": "CHARLEVILLE-MEZIERES",
      "addressA": "Place Ducale, 08000 Charleville-Mézières, France",
      "nameB": "Gare de Charleville",
      "latB": 49.767996,
      "longB": 4.725016,
      "cityB": "CHARLEVILLE-MEZIERES",
      "addressB": "Gare de Charleville-Mézières, Place de la Gare, 08000 Charleville-Mézières, France",
      "ABDuration": 3,
      "BADuration": 3
    },
    {
      "nameA": "Place Ducale",
      "latA": 49.773547,
      "longA": 4.720894,
      "cityA": "CHARLEVILLE-MEZIERES",
      "addressA": "Place Ducale, 08000 Charleville-Mézières, France",
      "nameB": "Gonzague",
      "latB": 49.770667,
      "longB": 4.71942,
      "cityB": "CHARLEVILLE-MEZIERES",
      "addressB": "Boulevard Gambetta, 08000 Charleville-Mézières, France",
      "ABDuration": 2,
      "BADuration": 2
    },
    {
      "nameA": "Place Ducale",
      "latA": 49.773548,
      "longA": 4.720895,
      "cityA": "CHARLEVILLE-MEZIERES",
      "addressA": "Place Ducale, 08000 Charleville-Mézières, France",
      "nameB": "Pont de Montcy",
      "latB": 49.775854,
      "longB": 4.728013,
      "cityB": "CHARLEVILLE-MEZIERES",
      "addressB": "79 Rue Forest, 08000 Charleville-Mézières, France",
      "ABDuration": 4,
      "BADuration": 3
    },
    {
      "nameA": "Place Ducale",
      "latA": 49.773549,
      "longA": 4.720896,
      "cityA": "CHARLEVILLE-MEZIERES",
      "addressA": "Place Ducale, 08000 Charleville-Mézières, France",
      "nameB": "Place des Droits de l’Homme",
      "latB": 49.778768,
      "longB": 4.716808,
      "cityB": "CHARLEVILLE-MEZIERES",
      "addressB": "13 Place des Droits de l'Homme, 08000 Charleville-Mézières, France",
      "ABDuration": 4,
      "BADuration": 6
    },
    {
      "nameA": "Place Ducale",
      "latA": 49.77355,
      "longA": 4.720897,
      "cityA": "CHARLEVILLE-MEZIERES",
      "addressA": "Place Ducale, 08000 Charleville-Mézières, France",
      "nameB": "Cimetière Boutet",
      "latB": 49.775873,
      "longB": 4.710554,
      "cityB": "CHARLEVILLE-MEZIERES",
      "addressB": "82 Avenue Charles Boutet, 08000 Charleville-Mézières, France",
      "ABDuration": 4,
      "BADuration": 8
    },
    {
      "nameA": "Gare de Charleville",
      "latA": 49.767996,
      "longA": 4.725016,
      "cityA": "CHARLEVILLE-MEZIERES",
      "addressA": "Gare de Charleville-Mézières, Place de la Gare, 08000 Charleville-Mézières, France",
      "nameB": "Pont de Montcy",
      "latB": 49.775854,
      "longB": 4.728013,
      "cityB": "CHARLEVILLE-MEZIERES",
      "addressB": "79 Rue Forest, 08000 Charleville-Mézières, France",
      "ABDuration": 4,
      "BADuration": 4
    },
    {
      "nameA": "Gare de Charleville",
      "latA": 49.767997,
      "longA": 4.725017,
      "cityA": "CHARLEVILLE-MEZIERES",
      "addressA": "Gare de Charleville-Mézières, Place de la Gare, 08000 Charleville-Mézières, France",
      "nameB": "Hôtel de Ville",
      "latB": 49.760233,
      "longB": 4.718773,
      "cityB": "CHARLEVILLE-MEZIERES",
      "addressB": "73 Place de l'Hôtel de ville, 08000 Charleville-Mézières, France",
      "ABDuration": 5,
      "BADuration": 5
    },
    {
      "nameA": "Gonzague",
      "latA": 49.770667,
      "longA": 4.71942,
      "cityA": "CHARLEVILLE-MEZIERES",
      "addressA": "Boulevard Gambetta, 08000 Charleville-Mézières, France",
      "nameB": "Hôtel de Ville",
      "latB": 49.760234,
      "longB": 4.718774,
      "cityB": "CHARLEVILLE-MEZIERES",
      "addressB": "73 Place de l'Hôtel de ville, 08000 Charleville-Mézières, France",
      "ABDuration": 6,
      "BADuration": 6
    },
    {
      "nameA": "Gonzague",
      "latA": 49.770668,
      "longA": 4.71943,
      "cityA": "CHARLEVILLE-MEZIERES",
      "addressA": "Boulevard Gambetta, 08000 Charleville-Mézières, France",
      "nameB": "Bd Gambetta",
      "latB": 49.773683,
      "longB": 4.705108,
      "cityB": "CHARLEVILLE-MEZIERES",
      "addressB": "167 Avenue Charles de Gaulle, 08000 Charleville-Mézières, France",
      "ABDuration": 6,
      "BADuration": 4
    },
    {
      "nameA": "Pont de Montcy",
      "latA": 49.775854,
      "longA": 4.728013,
      "cityA": "CHARLEVILLE-MEZIERES",
      "addressA": "79 Rue Forest, 08000 Charleville-Mézières, France",
      "nameB": "Parc du Mont Olympe",
      "latB": 49.780442,
      "longB": 4.720269,
      "cityB": "CHARLEVILLE-MEZIERES",
      "addressB": "Rue des Pâquis, Charleville-Mézières, France",
      "ABDuration": 3,
      "BADuration": 3
    },
    {
      "nameA": "Pont de Montcy",
      "latA": 49.775855,
      "longA": 4.728014,
      "cityA": "CHARLEVILLE-MEZIERES",
      "addressA": "79 Rue Forest, 08000 Charleville-Mézières, France",
      "nameB": "Montcy-Saint-Pierre",
      "latB": 49.78104,
      "longB": 4.728931,
      "cityB": "CHARLEVILLE-MEZIERES",
      "addressB": "2 Rue des Chalets, 08000 Charleville-Mézières, France",
      "ABDuration": 3,
      "BADuration": 3
    },
    {
      "nameA": "Pont de Montcy",
      "latA": 49.775856,
      "longA": 4.728015,
      "cityA": "CHARLEVILLE-MEZIERES",
      "addressA": "79 Rue Forest, 08000 Charleville-Mézières, France",
      "nameB": "Pont D58",
      "latB": 49.7747,
      "longB": 4.735955,
      "cityB": "CHARLEVILLE-MEZIERES",
      "addressB": "39 Rue de Castrice, 08000 Charleville-Mézières, France",
      "ABDuration": 3,
      "BADuration": 3
    },
    {
      "nameA": "Place des Droits de l’Homme",
      "latA": 49.778768,
      "longA": 4.716808,
      "cityA": "CHARLEVILLE-MEZIERES",
      "addressA": "13 Place des Droits de l'Homme, 08000 Charleville-Mézières, France",
      "nameB": "Cimetière Boutet",
      "latB": 49.775873,
      "longB": 4.710554,
      "cityB": "CHARLEVILLE-MEZIERES",
      "addressB": "82 Avenue Charles Boutet, 08000 Charleville-Mézières, France",
      "ABDuration": 5,
      "BADuration": 3
    },
    {
      "nameA": "Place des Droits de l’Homme",
      "latA": 49.778769,
      "longA": 4.716809,
      "cityA": "CHARLEVILLE-MEZIERES",
      "addressA": "13 Place des Droits de l'Homme, 08000 Charleville-Mézières, France",
      "nameB": "Parc Collignon",
      "latB": 49.783363,
      "longB": 4.710687,
      "cityB": "CHARLEVILLE-MEZIERES",
      "addressB": "Parc Collignon, Charleville-Mézières, France",
      "ABDuration": 5,
      "BADuration": 3
    },
    {
      "nameA": "Place des Droits de l’Homme",
      "latA": 49.77877,
      "longA": 4.71681,
      "cityA": "CHARLEVILLE-MEZIERES",
      "addressA": "13 Place des Droits de l'Homme, 08000 Charleville-Mézières, France",
      "nameB": "Bel-Air",
      "latB": 49.786522,
      "longB": 4.721889,
      "cityB": "CHARLEVILLE-MEZIERES",
      "addressB": "2 Rue Pierre Hallali, 08000 Charleville-Mézières, France",
      "ABDuration": 11,
      "BADuration": 4
    },
    {
      "nameA": "Place des Droits de l’Homme",
      "latA": 49.778771,
      "longA": 4.716811,
      "cityA": "CHARLEVILLE-MEZIERES",
      "addressA": "13 Place des Droits de l'Homme, 08000 Charleville-Mézières, France",
      "nameB": "Montcy-Notre-Dame",
      "latB": 49.780363,
      "longB": 4.739621,
      "cityB": "MONTCY-NOTRE-DAME",
      "addressB": "21 Rue de Bois Joli, 08090 Montcy-Notre-Dame, France",
      "ABDuration": 9,
      "BADuration": 11
    },
    {
      "nameA": "Cimetière Boutet",
      "latA": 49.775873,
      "longA": 4.710554,
      "cityA": "CHARLEVILLE-MEZIERES",
      "addressA": "82 Avenue Charles Boutet, 08000 Charleville-Mézières, France",
      "nameB": "Bd Gambetta",
      "latB": 49.773683,
      "longB": 4.705108,
      "cityB": "CHARLEVILLE-MEZIERES",
      "addressB": "167 Avenue Charles de Gaulle, 08000 Charleville-Mézières, France",
      "ABDuration": 2,
      "BADuration": 4
    },
    {
      "nameA": "Cimetière Boutet",
      "latA": 49.775874,
      "longA": 4.710555,
      "cityA": "CHARLEVILLE-MEZIERES",
      "addressA": "82 Avenue Charles Boutet, 08000 Charleville-Mézières, France",
      "nameB": "Etion",
      "latB": 49.785662,
      "longB": 4.695429,
      "cityB": "CHARLEVILLE-MEZIERES",
      "addressB": "207 Rue d'Etion, 08000 Charleville-Mézières, France",
      "ABDuration": 8,
      "BADuration": 8
    },
    {
      "nameA": "Cimetière Boutet",
      "latA": 49.775875,
      "longA": 4.710556,
      "cityA": "CHARLEVILLE-MEZIERES",
      "addressA": "82 Avenue Charles Boutet, 08000 Charleville-Mézières, France",
      "nameB": "Parc Collignon",
      "latB": 49.783363,
      "longB": 4.710687,
      "cityB": "CHARLEVILLE-MEZIERES",
      "addressB": "Parc Collignon, Charleville-Mézières, France",
      "ABDuration": 5,
      "BADuration": 5
    },
    {
      "nameA": "Hôtel de Ville",
      "latA": 49.760233,
      "longA": 4.718773,
      "cityA": "CHARLEVILLE-MEZIERES",
      "addressA": "73 Place de l'Hôtel de ville, 08000 Charleville-Mézières, France",
      "nameB": "Bd Gambetta",
      "latB": 49.773683,
      "longB": 4.705108,
      "cityB": "CHARLEVILLE-MEZIERES",
      "addressB": "167 Avenue Charles de Gaulle, 08000 Charleville-Mézières, France",
      "ABDuration": 9,
      "BADuration": 9
    },
    {
      "nameA": "Hôtel de Ville",
      "latA": 49.760234,
      "longA": 4.718774,
      "cityA": "CHARLEVILLE-MEZIERES",
      "addressA": "73 Place de l'Hôtel de ville, 08000 Charleville-Mézières, France",
      "nameB": "CHU Manchester",
      "latB": 49.762408,
      "longB": 4.69805,
      "cityB": "CHARLEVILLE-MEZIERES",
      "addressB": "45 Avenue de Manchester, 08000 Charleville-Mézières, France",
      "ABDuration": 8,
      "BADuration": 8
    },
    {
      "nameA": "Hôtel de Ville",
      "latA": 49.760235,
      "longA": 4.718775,
      "cityA": "CHARLEVILLE-MEZIERES",
      "addressA": "73 Place de l'Hôtel de ville, 08000 Charleville-Mézières, France",
      "nameB": "Parc des expos",
      "latB": 49.75669,
      "longB": 4.708418,
      "cityB": "CHARLEVILLE-MEZIERES",
      "addressB": "61 Boulevard de la Couronne Champagne, 08000 Charleville-Mézières, France",
      "ABDuration": 5,
      "BADuration": 5
    },
    {
      "nameA": "Hôtel de Ville",
      "latA": 49.760236,
      "longA": 4.718776,
      "cityA": "CHARLEVILLE-MEZIERES",
      "addressA": "73 Place de l'Hôtel de ville, 08000 Charleville-Mézières, France",
      "nameB": "Ronde Couture",
      "latB": 49.748122,
      "longB": 4.720491,
      "cityB": "CHARLEVILLE-MEZIERES",
      "addressB": "8 Rue des Mésanges, 08000 Charleville-Mézières, France",
      "ABDuration": 8,
      "BADuration": 8
    },
    {
      "nameA": "Hôtel de Ville",
      "latA": 49.760237,
      "longA": 4.718777,
      "cityA": "CHARLEVILLE-MEZIERES",
      "addressA": "73 Place de l'Hôtel de ville, 08000 Charleville-Mézières, France",
      "nameB": "Gare de Mohon",
      "latB": 49.752726,
      "longB": 4.733241,
      "cityB": "CHARLEVILLE-MEZIERES",
      "addressB": "Gare de Mohon, 08000 Charleville-Mézières, France",
      "ABDuration": 8,
      "BADuration": 9
    },
    {
      "nameA": "Hôtel de Ville",
      "latA": 49.760238,
      "longA": 4.718778,
      "cityA": "CHARLEVILLE-MEZIERES",
      "addressA": "73 Place de l'Hôtel de ville, 08000 Charleville-Mézières, France",
      "nameB": "Romery",
      "latB": 49.751174,
      "longB": 4.768733,
      "cityB": "SAINT-LAURENT",
      "addressB": "Romery, 08090 Saint-Laurent, France",
      "ABDuration": 17,
      "BADuration": 17
    },
    {
      "nameA": "Hôtel de Ville",
      "latA": 49.760239,
      "longA": 4.718779,
      "cityA": "CHARLEVILLE-MEZIERES",
      "addressA": "73 Place de l'Hôtel de ville, 08000 Charleville-Mézières, France",
      "nameB": "Le Theux",
      "latB": 49.760252,
      "longB": 4.739774,
      "cityB": "CHARLEVILLE-MEZIERES",
      "addressB": "86 Rue de Berthaucourt, 08000 Charleville-Mézières, France",
      "ABDuration": 12,
      "BADuration": 8
    },
    {
      "nameA": "Hôtel de Ville",
      "latA": 49.76024,
      "longA": 4.71878,
      "cityA": "CHARLEVILLE-MEZIERES",
      "addressA": "73 Place de l'Hôtel de ville, 08000 Charleville-Mézières, France",
      "nameB": "Pont D58",
      "latB": 49.7747,
      "longB": 4.735955,
      "cityB": "CHARLEVILLE-MEZIERES",
      "addressB": "39 Rue de Castrice, 08000 Charleville-Mézières, France",
      "ABDuration": 12,
      "BADuration": 12
    },
    {
      "nameA": "Bd Gambetta",
      "latA": 49.773683,
      "longA": 4.705108,
      "cityA": "CHARLEVILLE-MEZIERES",
      "addressA": "167 Avenue Charles de Gaulle, 08000 Charleville-Mézières, France",
      "nameB": "N43",
      "latB": 49.778295,
      "longB": 4.695448,
      "cityB": "WARCQ",
      "addressB": "34 Boulevard Lucien Pierquin, 08000 Warcq, France",
      "ABDuration": 3,
      "BADuration": 3
    },
    {
      "nameA": "Parc du Mont Olympe",
      "latA": 49.780442,
      "longA": 4.720269,
      "cityA": "CHARLEVILLE-MEZIERES",
      "addressA": "Rue des Pâquis, Charleville-Mézières, France",
      "nameB": "Montcy-Saint-Pierre",
      "latB": 49.78104,
      "longB": 4.728931,
      "cityB": "CHARLEVILLE-MEZIERES",
      "addressB": "2 Rue des Chalets, 08000 Charleville-Mézières, France",
      "ABDuration": 3,
      "BADuration": 3
    },
    {
      "nameA": "Montcy-Saint-Pierre",
      "latA": 49.78104,
      "longA": 4.728931,
      "cityA": "CHARLEVILLE-MEZIERES",
      "addressA": "2 Rue des Chalets, 08000 Charleville-Mézières, France",
      "nameB": "Pont D58",
      "latB": 49.7747,
      "longB": 4.735955,
      "cityB": "CHARLEVILLE-MEZIERES",
      "addressB": "39 Rue de Castrice, 08000 Charleville-Mézières, France",
      "ABDuration": 4,
      "BADuration": 4
    },
    {
      "nameA": "Montcy-Saint-Pierre",
      "latA": 49.78105,
      "longA": 4.728932,
      "cityA": "CHARLEVILLE-MEZIERES",
      "addressA": "2 Rue des Chalets, 08000 Charleville-Mézières, France",
      "nameB": "Mairie de Montcy-Notre-Dame",
      "latB": 49.773881,
      "longB": 4.742638,
      "cityB": "MONTCY-NOTRE-DAME",
      "addressB": "11 Place J B Clément, 08090 Montcy-Notre-Dame, France",
      "ABDuration": 6,
      "BADuration": 6
    },
    {
      "nameA": "Pont D58",
      "latA": 49.7747,
      "longA": 4.735955,
      "cityA": "CHARLEVILLE-MEZIERES",
      "addressA": "39 Rue de Castrice, 08000 Charleville-Mézières, France",
      "nameB": "Mairie de Montcy-Notre-Dame",
      "latB": 49.773881,
      "longB": 4.742638,
      "cityB": "MONTCY-NOTRE-DAME",
      "addressB": "11 Place J B Clément, 08090 Montcy-Notre-Dame, France",
      "ABDuration": 2,
      "BADuration": 2
    },
    {
      "nameA": "Pont D58",
      "latA": 49.7748,
      "longA": 4.735956,
      "cityA": "CHARLEVILLE-MEZIERES",
      "addressA": "39 Rue de Castrice, 08000 Charleville-Mézières, France",
      "nameB": "Aiglemont",
      "latB": 49.781557,
      "longB": 4.765989,
      "cityB": "AIGLEMONT",
      "addressB": "1 Rue Charles de Gaulle, 08090 Aiglemont, France",
      "ABDuration": 18,
      "BADuration": 9
    },
    {
      "nameA": "Pont D58",
      "latA": 49.7749,
      "longA": 4.735957,
      "cityA": "CHARLEVILLE-MEZIERES",
      "addressA": "39 Rue de Castrice, 08000 Charleville-Mézières, France",
      "nameB": "Le Theux",
      "latB": 49.760252,
      "longB": 4.739774,
      "cityB": "CHARLEVILLE-MEZIERES",
      "addressB": "86 Rue de Berthaucourt, 08000 Charleville-Mézières, France",
      "ABDuration": 12,
      "BADuration": 9
    },
    {
      "nameA": "Parc Collignon",
      "latA": 49.783363,
      "longA": 4.710687,
      "cityA": "CHARLEVILLE-MEZIERES",
      "addressA": "Parc Collignon, Charleville-Mézières, France",
      "nameB": "N43",
      "latB": 49.778295,
      "longB": 4.695448,
      "cityB": "WARCQ",
      "addressB": "34 Boulevard Lucien Pierquin, 08000 Warcq, France",
      "ABDuration": 7,
      "BADuration": 7
    },
    {
      "nameA": "Parc Collignon",
      "latA": 49.783364,
      "longA": 4.710688,
      "cityA": "CHARLEVILLE-MEZIERES",
      "addressA": "Parc Collignon, Charleville-Mézières, France",
      "nameB": "Etion",
      "latB": 49.785662,
      "longB": 4.695429,
      "cityB": "CHARLEVILLE-MEZIERES",
      "addressB": "207 Rue d'Etion, 08000 Charleville-Mézières, France",
      "ABDuration": 6,
      "BADuration": 6
    },
    {
      "nameA": "Parc Collignon",
      "latA": 49.783365,
      "longA": 4.710689,
      "cityA": "CHARLEVILLE-MEZIERES",
      "addressA": "Parc Collignon, Charleville-Mézières, France",
      "nameB": "La Havetière",
      "latB": 49.797853,
      "longB": 4.712416,
      "cityB": "CHARLEVILLE-MEZIERES",
      "addressB": "Horizon, 08000 Charleville-Mézières, France",
      "ABDuration": 10,
      "BADuration": 6
    },
    {
      "nameA": "Parc Collignon",
      "latA": 49.783366,
      "longA": 4.71069,
      "cityA": "CHARLEVILLE-MEZIERES",
      "addressA": "Parc Collignon, Charleville-Mézières, France",
      "nameB": "Bel-Air",
      "latB": 49.786522,
      "longB": 4.721889,
      "cityB": "CHARLEVILLE-MEZIERES",
      "addressB": "2 Rue Pierre Hallali, 08000 Charleville-Mézières, France",
      "ABDuration": 7,
      "BADuration": 7
    },
    {
      "nameA": "Bel-Air",
      "latA": 49.786522,
      "longA": 4.721889,
      "cityA": "CHARLEVILLE-MEZIERES",
      "addressA": "2 Rue Pierre Hallali, 08000 Charleville-Mézières, France",
      "nameB": "La Havetière",
      "latB": 49.797853,
      "longB": 4.712416,
      "cityB": "CHARLEVILLE-MEZIERES",
      "addressB": "Horizon, 08000 Charleville-Mézières, France",
      "ABDuration": 10,
      "BADuration": 8
    },
    {
      "nameA": "Bel-Air",
      "latA": 49.786523,
      "longA": 4.72189,
      "cityA": "CHARLEVILLE-MEZIERES",
      "addressA": "2 Rue Pierre Hallali, 08000 Charleville-Mézières, France",
      "nameB": "La Culbute",
      "latB": 49.792613,
      "longB": 4.726385,
      "cityB": "CHARLEVILLE-MEZIERES",
      "addressB": "Clouet, 08000 Charleville-Mézières, France",
      "ABDuration": 4,
      "BADuration": 3
    },
    {
      "nameA": "Bel-Air",
      "latA": 49.786524,
      "longA": 4.721891,
      "cityA": "CHARLEVILLE-MEZIERES",
      "addressA": "2 Rue Pierre Hallali, 08000 Charleville-Mézières, France",
      "nameB": "Pont de Nouzonville",
      "latB": 49.816503,
      "longB": 4.740041,
      "cityB": "NOUZONVILLE",
      "addressB": "1 Rue du Pont, 08700 Nouzonville, France",
      "ABDuration": 19,
      "BADuration": 26
    },
    {
      "nameA": "Montcy-Notre-Dame",
      "latA": 49.780363,
      "longA": 4.739621,
      "cityA": "MONTCY-NOTRE-DAME",
      "addressA": "21 Rue de Bois Joli, 08090 Montcy-Notre-Dame, France",
      "nameB": "Mairie de Montcy-Notre-Dame",
      "latB": 49.773881,
      "longB": 4.742638,
      "cityB": "MONTCY-NOTRE-DAME",
      "addressB": "11 Place J B Clément, 08090 Montcy-Notre-Dame, France",
      "ABDuration": 4,
      "BADuration": 4
    },
    {
      "nameA": "Etion",
      "latA": 49.785662,
      "longA": 4.695429,
      "cityA": "CHARLEVILLE-MEZIERES",
      "addressA": "207 Rue d'Etion, 08000 Charleville-Mézières, France",
      "nameB": "N43",
      "latB": 49.778295,
      "longB": 4.695448,
      "cityB": "WARCQ",
      "addressB": "34 Boulevard Lucien Pierquin, 08000 Warcq, France",
      "ABDuration": 6,
      "BADuration": 6
    },
    {
      "nameA": "Etion",
      "latA": 49.785662,
      "longA": 4.69543,
      "cityA": "CHARLEVILLE-MEZIERES",
      "addressA": "207 Rue d'Etion, 08000 Charleville-Mézières, France",
      "nameB": "Damouzy",
      "latB": 49.797616,
      "longB": 4.675881,
      "cityB": "DAMOUZY",
      "addressB": "2 Rue du Pâquis, 08090 Damouzy, France",
      "ABDuration": 8,
      "BADuration": 8
    },
    {
      "nameA": "CHU Manchester",
      "latA": 49.762408,
      "longA": 4.69805,
      "cityA": "CHARLEVILLE-MEZIERES",
      "addressA": "45 Avenue de Manchester, 08000 Charleville-Mézières, France",
      "nameB": "La Warenne",
      "latB": 49.760378,
      "longB": 4.685678,
      "cityB": "CHARLEVILLE-MEZIERES",
      "addressB": "Prom. de la Warenne, 08000 Charleville-Mézières, France",
      "ABDuration": 5,
      "BADuration": 5
    },
    {
      "nameA": "CHU Manchester",
      "latA": 49.762409,
      "longA": 4.69806,
      "cityA": "CHARLEVILLE-MEZIERES",
      "addressA": "45 Avenue de Manchester, 08000 Charleville-Mézières, France",
      "nameB": "Mairie de Warcq",
      "latB": 49.769007,
      "longB": 4.680596,
      "cityB": "WARCQ",
      "addressB": "20 Rue de la République, 08000 Warcq, France",
      "ABDuration": 7,
      "BADuration": 7
    },
    {
      "nameA": "Parc des expos",
      "latA": 49.75669,
      "longA": 4.708418,
      "cityA": "CHARLEVILLE-MEZIERES",
      "addressA": "61 Boulevard de la Couronne Champagne, 08000 Charleville-Mézières, France",
      "nameB": "Gare de Mohon",
      "latB": 49.752726,
      "longB": 4.733241,
      "cityB": "CHARLEVILLE-MEZIERES",
      "addressB": "Gare de Mohon, 08000 Charleville-Mézières, France",
      "ABDuration": 9,
      "BADuration": 9
    },
    {
      "nameA": "Parc des expos",
      "latA": 49.75669,
      "longA": 4.708419,
      "cityA": "CHARLEVILLE-MEZIERES",
      "addressA": "61 Boulevard de la Couronne Champagne, 08000 Charleville-Mézières, France",
      "nameB": "Ronde Couture",
      "latB": 49.748122,
      "longB": 4.720491,
      "cityB": "CHARLEVILLE-MEZIERES",
      "addressB": "",
      "ABDuration": 7,
      "BADuration": 7
    },
    {
      "nameA": "Parc des expos",
      "latA": 49.75669,
      "longA": 4.70842,
      "cityA": "CHARLEVILLE-MEZIERES",
      "addressA": "61 Boulevard de la Couronne Champagne, 08000 Charleville-Mézières, France",
      "nameB": "[Lotissement random point externe]",
      "latB": 49.751053,
      "longB": 4.705009,
      "cityB": "CHARLEVILLE-MEZIERES",
      "addressB": "30 Rue le Pré au Chêne, 08000 Charleville-Mézières, France",
      "ABDuration": 3,
      "BADuration": 3
    },
    {
      "nameA": "Parc des expos",
      "latA": 49.75669,
      "longA": 4.708421,
      "cityA": "CHARLEVILLE-MEZIERES",
      "addressA": "61 Boulevard de la Couronne Champagne, 08000 Charleville-Mézières, France",
      "nameB": "Mairie de Prix-lès-Mézières",
      "latB": 49.754407,
      "longB": 4.687684,
      "cityB": "PRIX-LES-MEZIERES",
      "addressB": "1 Rue d'Evigny, 08000 Prix-lès-Mézières, France",
      "ABDuration": 7,
      "BADuration": 8
    },
    {
      "nameA": "Ronde Couture",
      "latA": 49.748122,
      "longA": 4.720491,
      "cityA": "CHARLEVILLE-MEZIERES",
      "addressA": "8 Rue des Mésanges, 08000 Charleville-Mézières, France",
      "nameB": "[Lotissement random point externe]",
      "latB": 49.751053,
      "longB": 4.705009,
      "cityB": "CHARLEVILLE-MEZIERES",
      "addressB": "30 Rue le Pré au Chêne, 08000 Charleville-Mézières, France",
      "ABDuration": 7,
      "BADuration": 7
    },
    {
      "nameA": "Ronde Couture",
      "latA": 49.748123,
      "longA": 4.720492,
      "cityA": "CHARLEVILLE-MEZIERES",
      "addressA": "8 Rue des Mésanges, 08000 Charleville-Mézières, France",
      "nameB": "Centre Commercial",
      "latB": 49.739021,
      "longB": 4.707187,
      "cityB": "CHARLEVILLE-MEZIERES",
      "addressB": "D764, 08000 Les Ayvelles, France",
      "ABDuration": 8,
      "BADuration": 9
    },
    {
      "nameA": "Ronde Couture",
      "latA": 49.748124,
      "longA": 4.720493,
      "cityA": "CHARLEVILLE-MEZIERES",
      "addressA": "8 Rue des Mésanges, 08000 Charleville-Mézières, France",
      "nameB": "Campus Sup Ardennes",
      "latB": 49.739113,
      "longB": 4.721216,
      "cityB": "CHARLEVILLE-MEZIERES",
      "addressB": "3 Boulevard Jean Delautre, 08000 Charleville-Mézières, France",
      "ABDuration": 5,
      "BADuration": 5
    },
    {
      "nameA": "Ronde Couture",
      "latA": 49.748125,
      "longA": 4.720494,
      "cityA": "CHARLEVILLE-MEZIERES",
      "addressA": "8 Rue des Mésanges, 08000 Charleville-Mézières, France",
      "nameB": "Gare de Mohon",
      "latB": 49.752726,
      "longB": 4.733241,
      "cityB": "CHARLEVILLE-MEZIERES",
      "addressB": "Gare de Mohon, 08000 Charleville-Mézières, France",
      "ABDuration": 5,
      "BADuration": 5
    },
    {
      "nameA": "Gare de Mohon",
      "latA": 49.752726,
      "longA": 4.733241,
      "cityA": "CHARLEVILLE-MEZIERES",
      "addressA": "Gare de Mohon, 08000 Charleville-Mézières, France",
      "nameB": "Campus Sup Ardennes",
      "latB": 49.739113,
      "longB": 4.721216,
      "cityB": "CHARLEVILLE-MEZIERES",
      "addressB": "3 Boulevard Jean Delautre, 08000 Charleville-Mézières, France",
      "ABDuration": 8,
      "BADuration": 8
    },
    {
      "nameA": "Gare de Mohon",
      "latA": 49.752727,
      "longA": 4.733242,
      "cityA": "CHARLEVILLE-MEZIERES",
      "addressA": "Gare de Mohon, 08000 Charleville-Mézières, France",
      "nameB": "Pont Voie Ferrée",
      "latB": 49.744112,
      "longB": 4.735081,
      "cityB": "CHARLEVILLE-MEZIERES",
      "addressB": "10 Rue Paul Bert, 08000 Charleville-Mézières, France",
      "ABDuration": 4,
      "BADuration": 4
    },
    {
      "nameA": "Gare de Mohon",
      "latA": 49.752728,
      "longA": 4.733243,
      "cityA": "CHARLEVILLE-MEZIERES",
      "addressA": "Gare de Mohon, 08000 Charleville-Mézières, France",
      "nameB": "Semeuse",
      "latB": 49.748633,
      "longB": 4.752874,
      "cityB": "VILLERS-SEMEUSE",
      "addressB": "42 Rue Pierre Curie, 08000 Villers-Semeuse, France",
      "ABDuration": 7,
      "BADuration": 7
    },
    {
      "nameA": "Romery",
      "latA": 49.751174,
      "longA": 4.768733,
      "cityA": "SAINT-LAURENT",
      "addressA": "Romery, 08090 Saint-Laurent, France",
      "nameB": "Le Theux",
      "latB": 49.760252,
      "longB": 4.739774,
      "cityB": "CHARLEVILLE-MEZIERES",
      "addressB": "86 Rue de Berthaucourt, 08000 Charleville-Mézières, France",
      "ABDuration": 14,
      "BADuration": 11
    },
    {
      "nameA": "Romery",
      "latA": 49.751175,
      "longA": 4.768734,
      "cityA": "SAINT-LAURENT",
      "addressA": "Romery, 08090 Saint-Laurent, France",
      "nameB": "Saint Laurent",
      "latB": 49.764183,
      "longB": 4.771755,
      "cityB": "SAINT-LAURENT",
      "addressB": "22 Rue des Genêts, 08090 Saint-Laurent, France",
      "ABDuration": 14,
      "BADuration": 6
    },
    {
      "nameA": "Le Theux",
      "latA": 49.760252,
      "longA": 4.739774,
      "cityA": "CHARLEVILLE-MEZIERES",
      "addressA": "86 Rue de Berthaucourt, 08000 Charleville-Mézières, France",
      "nameB": "Saint Laurent",
      "latB": 49.764183,
      "longB": 4.771755,
      "cityB": "SAINT-LAURENT",
      "addressB": "22 Rue des Genêts, 08090 Saint-Laurent, France",
      "ABDuration": 12,
      "BADuration": 7
    },
    {
      "nameA": "N43",
      "latA": 49.778295,
      "longA": 4.695448,
      "cityA": "WARCQ",
      "addressA": "34 Boulevard Lucien Pierquin, 08000 Warcq, France",
      "nameB": "Mairie de Warcq",
      "latB": 49.769007,
      "longB": 4.680596,
      "cityB": "WARCQ",
      "addressB": "20 Rue de la République, 08000 Warcq, France",
      "ABDuration": 7,
      "BADuration": 6
    },
    {
      "nameA": "Mairie de Montcy-Notre-Dame",
      "latA": 49.773881,
      "longA": 4.742638,
      "cityA": "MONTCY-NOTRE-DAME",
      "addressA": "11 Place J B Clément, 08090 Montcy-Notre-Dame, France",
      "nameB": "Pont de Nouzonville",
      "latB": 49.816503,
      "longB": 4.740041,
      "cityB": "NOUZONVILLE",
      "addressB": "1 Rue du Pont, 08700 Nouzonville, France",
      "ABDuration": 24,
      "BADuration": 24
    },
    {
      "nameA": "Aiglemont",
      "latA": 49.781557,
      "longA": 4.765989,
      "cityA": "AIGLEMONT",
      "addressA": "1 Rue Charles de Gaulle, 08090 Aiglemont, France",
      "nameB": "Saint Laurent",
      "latB": 49.764183,
      "longB": 4.771755,
      "cityB": "SAINT-LAURENT",
      "addressB": "22 Rue des Genêts, 08090 Saint-Laurent, France",
      "ABDuration": 10,
      "BADuration": 10
    },
    {
      "nameA": "Aiglemont",
      "latA": 49.781558,
      "longA": 4.76599,
      "cityA": "AIGLEMONT",
      "addressA": "1 Rue Charles de Gaulle, 08090 Aiglemont, France",
      "nameB": "Gare de Nouzonville",
      "latB": 49.812281,
      "longB": 4.743186,
      "cityB": "NOUZONVILLE",
      "addressB": "Gare de Nouzonville, 08700 Nouzonville, France",
      "ABDuration": 14,
      "BADuration": 23
    },
    {
      "nameA": "Gare de Nouzonville",
      "latA": 49.812281,
      "longA": 4.743186,
      "cityA": "NOUZONVILLE",
      "addressA": "Gare de Nouzonville, 08700 Nouzonville, France",
      "nameB": "Pont de Nouzonville",
      "latB": 49.816503,
      "longB": 4.740041,
      "cityB": "NOUZONVILLE",
      "addressB": "1 Rue du Pont, 08700 Nouzonville, France",
      "ABDuration": 2,
      "BADuration": 2
    },
    {
      "nameA": "La Havetière",
      "latA": 49.797853,
      "longA": 4.712416,
      "cityA": "CHARLEVILLE-MEZIERES",
      "addressA": "Horizon, 08000 Charleville-Mézières, France",
      "nameB": "La Culbute",
      "latB": 49.792613,
      "longB": 4.726385,
      "cityB": "CHARLEVILLE-MEZIERES",
      "addressB": "Clouet, 08000 Charleville-Mézières, France",
      "ABDuration": 6,
      "BADuration": 6
    },
    {
      "nameA": "La Warenne",
      "latA": 49.760378,
      "longA": 4.685678,
      "cityA": "CHARLEVILLE-MEZIERES",
      "addressA": "Prom. de la Warenne, 08000 Charleville-Mézières, France",
      "nameB": "Mairie de Warcq",
      "latB": 49.769007,
      "longB": 4.680596,
      "cityB": "WARCQ",
      "addressB": "20 Rue de la République, 08000 Warcq, France",
      "ABDuration": 9,
      "BADuration": 9
    },
    {
      "nameA": "Mairie de Warcq",
      "latA": 49.769007,
      "longA": 4.680596,
      "cityA": "WARCQ",
      "addressA": "20 Rue de la République, 08000 Warcq, France",
      "nameB": "Mairie de Prix-lès-Mézières",
      "latB": 49.754407,
      "longB": 4.687684,
      "cityB": "PRIX-LES-MEZIERES",
      "addressB": "1 Rue d'Evigny, 08000 Prix-lès-Mézières, France",
      "ABDuration": 18,
      "BADuration": 18
    },
    {
      "nameA": "Centre Commercial",
      "latA": 49.739021,
      "longA": 4.707187,
      "cityA": "CHARLEVILLE-MEZIERES",
      "addressA": "2 Rue Paulin Richier, 08000 Charleville-Mézières, France",
      "nameB": "Campus Sup Ardennes",
      "latB": 49.739113,
      "longB": 4.721216,
      "cityB": "CHARLEVILLE-MEZIERES",
      "addressB": "3 Boulevard Jean Delautre, 08000 Charleville-Mézières, France",
      "ABDuration": 5,
      "BADuration": 6
    },
    {
      "nameA": "Campus Sup Ardennes",
      "latA": 49.739113,
      "longA": 4.721216,
      "cityA": "CHARLEVILLE-MEZIERES",
      "addressA": "3 Boulevard Jean Delautre, 08000 Charleville-Mézières, France",
      "nameB": "Mairie de La Francheville",
      "latB": 49.728649,
      "longB": 4.712253,
      "cityB": "LA FRANCHEVILLE",
      "addressB": "2bis Rue d'Evigny, 08000 La Francheville, France",
      "ABDuration": 7,
      "BADuration": 7
    },
    {
      "nameA": "Pont Voie Ferrée",
      "latA": 49.744112,
      "longA": 4.735081,
      "cityA": "CHARLEVILLE-MEZIERES",
      "addressA": "10 Rue Paul Bert, 08000 Charleville-Mézières, France",
      "nameB": "Mairie de Villers-Semeuse",
      "latB": 49.742563,
      "longB": 4.7468,
      "cityB": "VILLERS-SEMEUSE",
      "addressB": "11 Rue Ferdinand Buisson, 08000 Villers-Semeuse, France",
      "ABDuration": 4,
      "BADuration": 4
    },
    {
      "nameA": "Pont Voie Ferrée",
      "latA": 49.744113,
      "longA": 4.735082,
      "cityA": "CHARLEVILLE-MEZIERES",
      "addressA": "10 Rue Paul Bert, 08000 Charleville-Mézières, France",
      "nameB": "ZI de Charleville-Mézières",
      "latB": 49.737554,
      "longB": 4.733999,
      "cityB": "CHARLEVILLE-MEZIERES",
      "addressB": "12 Rue Camille Didier, 08000 Charleville-Mézières, France",
      "ABDuration": 5,
      "BADuration": 5
    },
    {
      "nameA": "Semeuse",
      "latA": 49.748633,
      "longA": 4.752874,
      "cityA": "VILLERS-SEMEUSE",
      "addressA": "42 Rue Pierre Curie, 08000 Villers-Semeuse, France",
      "nameB": "Mairie de Villers-Semeuse",
      "latB": 49.742563,
      "longB": 4.7468,
      "cityB": "VILLERS-SEMEUSE",
      "addressB": "11 Rue Ferdinand Buisson, 08000 Villers-Semeuse, France",
      "ABDuration": 4,
      "BADuration": 4
    },
    {
      "nameA": "Mairie de Villers-Semeuse",
      "latA": 49.742564,
      "longA": 4.7469,
      "cityA": "VILLERS-SEMEUSE",
      "addressA": "11 Rue Ferdinand Buisson, 08000 Villers-Semeuse, France",
      "nameB": "ZI de Charleville-Mézières",
      "latB": 49.737554,
      "longB": 4.733999,
      "cityB": "CHARLEVILLE-MEZIERES",
      "addressB": "12 Rue Camille Didier, 08000 Charleville-Mézières, France",
      "ABDuration": 5,
      "BADuration": 5
    },
    {
      "nameA": "Mairie de Villers-Semeuse",
      "latA": 49.742565,
      "longA": 4.747,
      "cityA": "VILLERS-SEMEUSE",
      "addressA": "11 Rue Ferdinand Buisson, 08000 Villers-Semeuse, France",
      "nameB": "Centre Commercial",
      "latB": 49.732376,
      "longB": 4.752932,
      "cityB": "LES AYVELLES",
      "addressB": "D764, 08000 Les Ayvelles, France",
      "ABDuration": 6,
      "BADuration": 6
    },
    {
      "nameA": "Les Ayvelles",
      "latA": 49.722339,
      "longA": 4.756394,
      "cityA": "VILLERS-SEMEUSE",
      "addressA": "Ballastières, 08000 Les Ayvelles, France",
      "nameB": "Centre Commercial",
      "latB": 49.732376,
      "longB": 4.752933,
      "cityB": "VILLERS-SEMEUSE",
      "addressB": "D764, 08000 Les Ayvelles, France",
      "ABDuration": 5,
      "BADuration": 5
    },
    {
      "nameA": "Fort des Ayvelles",
      "latA": 49.725566,
      "longA": 4.732754,
      "cityA": "VILLERS-SEMEUSE",
      "addressA": "46 Rue Louise Michel, 08000 Villers-Semeuse, France",
      "nameB": "Mairie de Villers-Semeuse",
      "latB": 49.742564,
      "longB": 4.7469,
      "cityB": "VILLERS-SEMEUSE",
      "addressB": "11 Rue Ferdinand Buisson, 08000 Villers-Semeuse, France",
      "ABDuration": 13,
      "BADuration": 10
    },
    {
      "nameA": "Fort des Ayvelles",
      "latA": 49.725566,
      "longA": 4.732754,
      "cityA": "VILLERS-SEMEUSE",
      "addressA": "46 Rue Louise Michel, 08000 Villers-Semeuse, France",
      "nameB": "Mairie de La Francheville",
      "latB": 49.728649,
      "longB": 4.712253,
      "cityB": "LA FRANCHEVILLE",
      "addressB": "2bis Rue d'Evigny, 08000 La Francheville, France",
      "ABDuration": 7,
      "BADuration": 8
    },
    {
      "nameA": "Fort des Ayvelles",
      "latA": 49.725566,
      "longA": 4.732754,
      "cityA": "VILLERS-SEMEUSE",
      "addressA": "46 Rue Louise Michel, 08000 Villers-Semeuse, France",
      "nameB": "Les Ayvelles",
      "latB": 49.722339,
      "longB": 4.756394,
      "cityB": "LES AYVELLES",
      "addressB": "Ballastières, 08000 Les Ayvelles, France",
      "ABDuration": 11,
      "BADuration": 14
    }
  ]
}
